City_ID,City,Lat,Lng,Max Temp,Humidity,Cloudiness,Wind Speed,Country,Date
0,olonkinbyen,70.9221,-8.7187,275.49,86,100,6.54,SJ,1696030288
1,port-aux-francais,-49.35,70.2167,274.16,71,12,18.42,TF,1696030273
2,grytviken,-54.2811,-36.5092,272.0,88,18,3.86,GS,1696030016
3,waitangi,-43.9535,-176.5597,285.83,79,100,3.13,NZ,1696030423
4,adamstown,-25.066,-130.1015,293.81,83,21,10.18,PN,1696030274
5,garoua boulai,5.8833,14.55,291.72,96,99,0.84,CM,1696030423
6,bilibino,68.0546,166.4372,268.82,91,99,2.4,RU,1696030280
7,san patricio,28.017,-97.5169,305.67,61,16,6.1,US,1696030315
8,tiksi,71.6872,128.8694,271.55,84,100,6.5,RU,1696030016
9,yellowknife,62.456,-114.3525,281.16,65,75,2.57,CA,1696030290
10,petropavlovsk-kamchatsky,53.0452,158.6483,279.48,70,0,2.0,RU,1696030235
11,khovd,48.0056,91.6419,276.48,60,53,2.37,MN,1696030424
12,ola,59.5833,151.2833,279.7,86,100,1.99,RU,1696030424
13,ilulissat,69.2167,-51.1,273.16,86,100,0.0,GL,1696030284
14,barah,13.7,30.3667,304.06,42,7,2.94,SD,1696030424
15,severo-yeniseyskiy,60.3725,93.0408,276.89,94,99,4.22,RU,1696030424
16,puerto natales,-51.7236,-72.4875,278.08,86,100,1.69,CL,1696030425
17,thaba-tseka,-29.522,28.6084,284.03,32,26,2.6,LS,1696030425
18,edinburgh of the seven seas,-37.0676,-12.3116,283.97,88,100,14.91,SH,1696030275
19,varginha,-21.5514,-45.4303,293.65,67,62,4.18,BR,1696030425
20,altai,46.3722,96.2583,272.34,49,31,1.23,MN,1696030425
21,papatowai,-46.5619,169.4708,279.86,73,97,8.59,NZ,1696030023
22,arraial do cabo,-22.9661,-42.0278,294.07,78,75,6.17,BR,1696030282
23,aracuai,-16.8497,-42.0703,297.27,64,6,3.65,BR,1696030426
24,castel di sangro,41.7737,14.1035,287.61,69,0,1.92,IT,1696030426
25,fort bragg,35.139,-79.006,295.83,80,20,2.57,US,1696030303
26,tyazhinskiy,56.116,88.524,277.63,95,38,2.64,RU,1696030426
27,invercargill,-46.4,168.35,280.38,81,83,8.05,NZ,1696030233
28,anadyr,64.75,177.4833,279.43,86,75,4.0,RU,1696030028
29,mount pearl,47.5166,-52.7813,283.34,85,75,1.03,CA,1696030322
30,natal,-5.795,-35.2094,298.51,83,40,4.12,BR,1696030228
31,tan-tan,28.438,-11.1032,295.65,73,13,2.51,MA,1696030427
32,bethel,41.3712,-73.414,287.2,89,100,5.14,US,1696030272
33,west island,-12.1568,96.8225,298.14,83,75,7.2,CC,1696030427
34,puerto ayora,-0.7393,-90.3518,296.79,89,45,2.24,EC,1696030011
35,barreiro do jaiba,-15.6167,-43.6,300.73,46,13,4.54,BR,1696030427
36,port mathurin,-19.6833,63.4167,295.86,65,66,7.75,MU,1696030027
37,port alfred,-33.5906,26.891,289.92,83,89,3.1,ZA,1696030153
38,ushuaia,-54.8,-68.3,282.96,46,0,4.63,AR,1696030277
39,sitka,57.0531,-135.33,286.09,62,100,2.06,US,1696030313
40,karratha,-20.7377,116.8463,303.04,22,54,7.88,AU,1696030289
41,sinabang,2.4803,96.3801,299.35,84,96,3.28,ID,1696030043
42,whitehorse,60.7161,-135.0538,282.09,80,100,0.45,CA,1696030274
43,thompson,55.7435,-97.8558,286.24,71,75,1.54,CA,1696030214
44,timimoun,29.2639,0.231,299.36,27,0,7.2,DZ,1696030428
45,albany,42.6001,-73.9662,287.92,92,100,0.99,US,1696030237
46,vorgashor,67.5833,63.95,272.74,79,97,2.36,RU,1696030052
47,ballina,-28.8667,153.5667,297.47,61,7,4.01,AU,1696030429
48,bredasdorp,-34.5322,20.0403,289.14,66,86,7.23,ZA,1696030289
49,ust-nera,64.5667,143.2,271.0,72,14,1.75,RU,1696030305
50,khorixas,-20.3667,14.9667,291.41,38,0,1.42,NA,1696030429
51,iqaluit,63.7506,-68.5145,275.0,87,100,6.17,CA,1696030429
52,cave creek,33.8333,-111.9508,309.71,12,0,2.24,US,1696030430
53,bubaque,11.2833,-15.8333,301.37,79,53,4.37,GW,1696030430
54,hermanus,-34.4187,19.2345,288.7,79,92,8.21,ZA,1696030290
55,lebu,-37.6167,-73.65,283.8,89,0,4.79,CL,1696030318
56,mammoth lakes,37.6485,-118.9721,290.55,39,0,9.77,US,1696030430
57,tura,25.5198,90.2201,296.88,95,98,1.9,IN,1696030015
58,uturoa,-16.7333,-151.4333,298.87,78,64,8.03,PF,1696030064
59,forster,-32.1667,152.5167,297.75,54,0,3.5,AU,1696030430
60,quellon,-43.1167,-73.6167,279.69,82,34,3.16,CL,1696030318
61,carnarvon,-24.8667,113.6333,292.69,67,2,10.99,AU,1696030328
62,east london,-33.0153,27.9116,293.37,63,98,2.36,ZA,1696030431
63,callao,-12.0667,-77.15,294.66,72,40,4.12,PE,1696030292
64,hawaiian paradise park,19.5933,-154.9731,302.88,76,0,3.6,US,1696030294
65,vilyuchinsk,52.9306,158.4028,280.3,55,100,0.86,RU,1696030332
66,klyuchi,52.2667,79.1667,283.12,72,52,1.35,RU,1696030332
67,lihue,21.9789,-159.3672,301.89,72,40,6.17,US,1696030314
68,blackmans bay,-43.0167,147.3167,290.22,62,93,1.35,AU,1696030273
69,saipan,15.1355,145.701,302.54,79,20,1.54,MP,1696030028
70,fort st. john,56.2499,-120.8529,282.09,81,100,2.57,CA,1696030432
71,kerikeri,-35.2268,173.9474,285.63,73,53,8.01,NZ,1696030432
72,ginir,7.1333,40.7,289.49,78,72,1.65,ET,1696030306
73,la passe,45.5549,-0.8967,293.28,91,96,1.95,FR,1696030432
74,new norfolk,-42.7826,147.0587,290.88,45,97,3.91,AU,1696030433
75,hamilton,39.1834,-84.5333,296.61,77,0,1.54,US,1696029987
76,walvis bay,-22.9575,14.5053,285.42,93,1,3.09,NA,1696030433
77,antofagasta,-23.65,-70.4,288.75,80,35,2.74,CL,1696030185
78,chios,38.3678,26.1358,294.89,73,1,4.96,GR,1696030433
79,touros,-5.1989,-35.4608,298.24,76,80,7.66,BR,1696030298
80,coihueco,-36.6167,-71.8333,291.56,52,0,3.09,CL,1696030316
81,port lincoln,-34.7333,135.8667,297.59,27,16,8.81,AU,1696030293
82,sanctuary point,-35.1114,150.629,296.59,31,0,3.31,AU,1696030434
83,isafjordur,66.0755,-23.124,276.78,87,99,2.36,IS,1696030434
84,jwaneng,-24.6004,24.7303,290.76,36,0,3.98,BW,1696030434
85,lompoc,34.6391,-120.4579,297.05,68,100,5.14,US,1696030199
86,flying fish cove,-10.4217,105.6791,296.97,94,100,3.6,CX,1696030292
87,mandera,3.9366,41.867,299.42,69,39,7.54,KE,1696030435
88,priladozhskiy,59.85,31.4833,288.03,83,100,2.91,RU,1696030435
89,susuman,62.7833,148.1667,270.49,71,61,1.91,RU,1696030294
90,college,64.8569,-147.8028,279.86,52,75,0.45,US,1696030300
91,happy valley-goose bay,53.3168,-60.3315,286.32,62,75,2.06,CA,1696030338
92,greymouth,-42.4667,171.2,284.34,56,53,2.75,NZ,1696030435
93,vila franca do campo,37.7167,-25.4333,296.38,99,96,5.75,PT,1696030276
94,jordan,31.0,36.0,295.76,35,0,1.72,JO,1696030436
95,kodiak,57.79,-152.4072,283.88,76,20,0.0,US,1696030031
96,waddan,29.1614,16.139,295.39,67,18,4.46,LY,1696030436
97,harstad,68.799,16.5293,284.15,95,100,10.28,NO,1696030436
98,vydrino,51.485,104.8461,281.92,65,28,2.29,RU,1696030436
99,mikuni,36.2171,136.1519,295.1,59,74,2.13,JP,1696030436
100,chonchi,-42.6128,-73.8092,283.71,88,7,0.5,CL,1696030037
101,kununurra,-15.7667,128.7333,300.14,74,40,2.06,AU,1696030437
102,humaita,-7.5061,-63.0208,299.19,81,90,0.86,BR,1696030437
103,nova sintra,14.8667,-24.7167,298.05,80,99,2.66,CV,1696030437
104,minas de marcona,-15.2119,-75.1103,287.63,83,36,5.59,PE,1696030437
105,urengoy,65.9667,78.3667,273.77,88,38,6.71,RU,1696030437
106,newman,37.3138,-121.0208,302.34,54,23,3.13,US,1696030437
107,san antonio de pale,-1.4014,5.6325,297.82,84,34,3.64,GQ,1696030438
108,duekoue,6.7472,-7.3496,296.57,95,80,1.19,CI,1696030438
109,rechka-vydrino,51.485,104.8461,281.92,65,28,2.29,RU,1696030438
110,mariental,-24.6333,17.9667,292.43,15,74,0.03,NA,1696030438
111,valle de la pascua,9.2155,-66.0073,301.42,61,86,1.14,VE,1696030438
112,la'ie,21.6477,-157.9253,305.13,73,99,1.79,US,1696030338
113,afaahiti,-17.75,-149.2833,300.08,86,33,8.02,PF,1696030319
114,antalaha,-14.9003,50.2788,294.23,88,69,2.29,MG,1696030439
115,mount gambier,-37.8333,140.7667,294.3,40,65,4.48,AU,1696030305
116,paradip garh,20.3167,86.6167,299.55,88,100,2.04,IN,1696030439
117,sarykemer,43.0,71.5,284.86,50,39,1.01,KZ,1696030439
118,velikiy ustyug,60.7644,46.3106,283.37,95,100,1.34,RU,1696030439
119,northam,51.0333,-4.2167,286.85,94,100,2.49,GB,1696030439
120,sarh,9.1429,18.3923,298.1,100,0,0.0,TD,1696030440
121,kertih,4.5141,103.4483,298.2,94,40,0.0,MY,1696030440
122,porto velho,-8.7619,-63.9039,301.18,78,20,1.03,BR,1696030177
123,bamboo flat,11.7,92.7167,299.2,89,75,3.09,IN,1696030295
124,rampur,28.8167,79.0333,297.5,82,57,1.5,IN,1696030440
125,praia da vitoria,38.7333,-27.0667,294.68,94,40,2.26,PT,1696030440
126,bodaybo,57.8506,114.1933,279.76,78,73,0.59,RU,1696030440
127,manakara,-22.1333,48.0167,292.39,93,1,2.84,MG,1696030441
128,ribeira grande,38.5167,-28.7,293.02,94,100,1.79,PT,1696030295
129,warmbad,-28.45,18.7333,289.07,28,40,3.13,NA,1696030441
130,punta arenas,-53.15,-70.9167,281.21,57,0,2.57,CL,1696030308
131,tolanaro,-25.0319,46.9987,296.19,88,20,7.2,MG,1696030024
132,stanley,54.868,-1.6985,284.14,92,0,2.06,GB,1696030277
133,vorkuta,67.5,64.0,272.5,80,96,2.64,RU,1696030336
134,mirabad,30.4362,61.8383,293.52,24,0,7.91,AF,1696030442
135,ust'-barguzin,53.45,108.9833,280.01,82,6,1.71,RU,1696030442
136,vanimo,-2.6741,141.3028,302.24,67,54,2.38,PG,1696030442
137,tobruk,32.0836,23.9764,296.59,76,0,3.57,LY,1696030442
138,raduzhnyy,62.0961,77.475,272.62,79,10,5.06,RU,1696030442
139,sona,45.4388,10.8255,291.25,77,0,1.03,IT,1696030443
140,kavaratti,10.5669,72.642,300.7,82,84,8.26,IN,1696030281
141,jabor,5.921,169.6434,300.51,80,100,5.75,MH,1696030443
142,san mariano,7.5,126.0,299.94,79,100,1.47,PH,1696030443
143,alice springs,-23.7,133.8833,298.9,13,49,2.57,AU,1696030285
144,nagqu,31.5,92.0,273.79,90,63,1.91,CN,1696030443
145,codrington,-38.2667,141.9667,293.99,48,64,6.94,AU,1696030318
146,geraldton,-28.7667,114.6,285.38,87,40,4.12,AU,1696030286
147,alesund,62.4723,6.1549,286.9,82,100,3.6,NO,1696030443
148,yarkovo,57.4028,67.0786,283.0,93,100,2.09,RU,1696030444
149,rawlins,41.7911,-107.2387,297.09,12,0,6.17,US,1696030444
150,nuku'alofa,-21.1333,-175.2,297.34,60,20,5.14,TO,1696030444
151,akonolinga,3.7667,12.25,292.78,99,61,1.25,CM,1696030444
152,griffith,41.5284,-87.4237,294.89,75,0,3.09,US,1696030293
153,ceeldheer,3.8488,47.1806,298.73,87,43,7.17,SO,1696030444
154,camapua,-19.5314,-54.0439,302.06,52,67,2.55,BR,1696030444
155,kamenka,51.3223,42.7678,286.61,85,52,1.65,RU,1696030445
156,pitimbu,-7.4706,-34.8086,298.48,74,86,6.22,BR,1696030445
157,broken hill,-31.95,141.4333,300.37,18,0,4.8,AU,1696030326
158,pionerskiy,54.9508,20.2275,290.23,80,100,3.83,RU,1696030445
159,yanam,16.7333,82.2167,298.25,94,99,2.29,IN,1696030445
160,nuuk,64.1835,-51.7216,275.49,93,75,5.14,GL,1696030134
161,vilhena,-12.7406,-60.1458,297.27,94,40,2.06,BR,1696030446
162,faya-largeau,17.9257,19.1043,304.48,37,76,3.17,TD,1696030446
163,pampa,35.5362,-100.9599,306.68,29,44,10.29,US,1696030446
164,avarua,-21.2078,-159.775,299.18,83,75,4.63,CK,1696030294
165,yilan,24.757,121.753,304.27,78,6,1.14,TW,1696030446
166,tazovsky,67.4667,78.7,270.3,81,16,7.5,RU,1696030297
167,college station,30.628,-96.3344,307.37,42,0,3.6,US,1696030446
168,iskateley,67.6803,53.1512,275.96,75,100,7.41,RU,1696030289
169,bengkulu,-3.8004,102.2655,294.93,94,79,1.65,ID,1696030055
170,cabo san lucas,22.8909,-109.9124,308.49,49,20,3.6,MX,1696030200
171,ma'ili,21.4219,-158.1803,305.16,56,40,5.14,US,1696030447
172,tamanrasset,22.785,5.5228,299.1,24,40,1.54,DZ,1696030447
173,wenling,28.3669,121.36,299.63,77,0,1.09,CN,1696030447
174,zaozersk,69.4005,32.4476,282.57,94,100,3.53,RU,1696030321
175,cole harbour,44.6724,-63.4751,287.86,92,61,0.89,CA,1696030447
176,luganville,-15.5333,167.1667,298.63,61,95,6.87,VU,1696030448
177,saint-pierre,-21.3393,55.4781,294.97,64,75,2.57,RE,1696030448
178,ko samui,9.5357,99.9357,300.1,89,20,0.0,TH,1696030448
179,menongue,-14.6585,17.691,292.59,36,67,1.65,AO,1696030448
180,waingapu,-9.6567,120.2641,300.57,63,36,4.38,ID,1696030448
181,kogalym,62.2654,74.4791,271.83,83,5,5.47,RU,1696030448
182,lumphat,13.4878,106.9816,296.67,98,92,0.56,KH,1696030449
183,exu,-7.5119,-39.7242,299.93,30,98,1.74,BR,1696030228
184,dryden,49.7833,-92.7503,288.31,88,20,3.09,CA,1696030449
185,antsiranana,-12.2787,49.2917,295.87,80,23,7.13,MG,1696030319
186,oranjemund,-28.55,16.4333,286.82,90,61,0.8,NA,1696030413
187,tulun,54.5611,100.5792,280.99,89,100,2.13,RU,1696030449
188,pacific grove,36.6177,-121.9166,295.03,84,75,4.12,US,1696030450
189,smithers,54.7804,-127.1743,284.33,62,40,4.12,CA,1696030450
190,bonthe,7.5264,-12.505,298.78,89,71,1.98,SL,1696030450
191,santiago,-33.4569,-70.6483,293.84,51,0,3.6,CL,1696030450
192,terrigal,-33.45,151.45,297.04,71,1,2.6,AU,1696030450
193,alofi,-19.0595,-169.9187,300.09,78,74,5.14,NU,1696030450
194,qaqortoq,60.7167,-46.0333,276.16,69,4,2.18,GL,1696030309
195,shasta lake,40.6804,-122.3708,298.55,54,100,1.34,US,1696030451
196,atafu village,-8.5421,-172.5159,301.92,71,23,4.25,TK,1696030287
197,longyearbyen,78.2186,15.6401,273.06,69,75,3.09,SJ,1696030278
198,port elizabeth,-33.918,25.5701,289.99,74,0,2.06,ZA,1696030283
199,kushiro,42.975,144.3747,288.68,88,75,1.03,JP,1696030451
200,almendralejo,38.6832,-6.4075,298.77,28,33,1.78,ES,1696030451
201,brisas de zicatela,15.8369,-97.0419,304.44,51,20,1.54,MX,1696030451
202,shengli,37.4564,118.4856,293.22,46,0,5.44,CN,1696030452
203,waris aliganj,25.0167,85.6333,299.51,87,99,0.86,IN,1696030452
204,sol'tsy,58.1239,30.3238,287.19,82,100,2.68,RU,1696030452
205,hilo,19.7297,-155.09,303.0,71,0,3.6,US,1696030450
206,georgetown,5.4112,100.3354,300.9,95,20,0.51,MY,1696030214
207,kristiansund,63.1115,7.732,284.51,93,100,1.03,NO,1696030452
208,horta,38.5333,-28.6333,292.6,94,100,1.79,PT,1696030301
209,ambon,-3.6954,128.1814,300.23,83,75,2.06,ID,1696030453
210,ghorawal,24.7667,82.7833,300.23,70,99,1.46,IN,1696030453
211,flin flon,54.7682,-101.865,286.06,94,100,2.06,CA,1696030453
212,tilcara,-23.5776,-65.3509,278.03,78,48,1.74,AR,1696030453
213,usogorsk,63.4106,48.6872,282.24,93,100,2.73,RU,1696030453
214,nar'yan-mar,67.6713,53.087,276.03,76,100,7.41,RU,1696030296
215,banda aceh,5.5577,95.3222,299.16,83,54,2.07,ID,1696030454
216,enewetak,11.3474,162.3373,302.08,76,82,5.77,MH,1696030312
217,santarem,-2.4431,-54.7083,302.22,79,0,2.06,BR,1696030454
218,shenjiamen,29.9576,122.298,298.84,86,16,5.75,CN,1696030454
219,valparaiso,-33.0393,-71.6273,291.28,63,0,3.09,CL,1696030156
220,richards bay,-28.783,32.0377,295.0,82,0,3.54,ZA,1696030054
221,buala,-8.145,159.5921,301.54,79,92,4.19,SB,1696030455
222,rayevskiy,54.0658,54.9468,282.25,96,84,3.28,RU,1696030455
223,bikenibeu village,1.3673,173.1241,304.13,74,40,2.57,KI,1696030016
224,broome,42.2506,-75.833,291.3,92,20,0.89,US,1696030455
225,hadibu,12.65,54.0333,299.52,85,95,2.2,YE,1696030325
226,badger,64.8,-147.5333,279.81,53,75,0.0,US,1696030306
227,nadi,-17.8,177.4167,300.15,54,20,4.12,FJ,1696030328
228,zheleznogorsk-ilimskiy,56.5768,104.1217,279.75,87,100,1.57,RU,1696030456
229,bereket,39.2446,55.5154,290.26,37,0,3.78,TM,1696030456
230,santa elena de uairen,4.6167,-61.1333,297.56,62,89,2.27,VE,1696030456
231,el calafate,-50.3408,-72.2768,279.65,61,100,0.7,AR,1696030456
232,tosontsengel,48.7567,98.2839,271.64,81,91,0.29,MN,1696030456
233,colac,-38.3333,143.5833,293.75,34,69,5.93,AU,1696030457
234,jalai nur,49.45,117.7,282.27,58,12,2.9,CN,1696030338
235,margaret river,-33.95,115.0667,287.54,72,64,7.78,AU,1696030280
236,boguchany,58.3814,97.4531,280.63,87,100,3.64,RU,1696030457
237,lodhran,29.5405,71.6336,297.05,32,0,3.61,PK,1696030457
238,mali,12.079,-12.2982,289.83,90,87,1.55,GN,1696030457
239,alta,69.9689,23.2717,280.74,93,100,1.54,NO,1696030458
240,queenstown,-31.8976,26.8753,290.5,27,94,3.74,ZA,1696030458
241,i-n-salah,27.1935,2.4607,302.03,27,0,11.35,DZ,1696030458
242,tanout,14.9709,8.8879,305.01,33,52,4.3,NE,1696030458
243,san jose,37.3394,-121.895,296.56,63,75,21.9,US,1696030352
244,saint-philippe,-21.3585,55.7679,294.92,77,35,3.06,RE,1696030301
245,al ghayzah,16.2079,52.176,298.66,87,6,0.66,YE,1696030459
246,aripuana,-9.1667,-60.6333,297.29,89,93,1.14,BR,1696030459
247,qamdo,31.1667,97.2333,276.58,74,1,1.65,CN,1696030459
248,ataq,14.5377,46.8319,296.03,51,3,0.45,YE,1696030459
249,ji'an,27.1172,114.9793,300.2,79,7,2.08,CN,1696030459
250,conneaut,41.9476,-80.5542,293.14,87,21,2.83,US,1696030444
251,toledo,39.8333,-4.0,296.16,41,7,3.1,ES,1696030460
252,portland,45.5234,-122.6762,290.48,79,100,2.06,US,1696030460
253,kenora,49.8167,-94.4337,289.69,77,20,1.54,CA,1696030460
254,berezovyy,51.6667,135.7,281.24,95,100,0.37,RU,1696030297
255,buryn',51.1991,33.8352,285.99,56,3,1.36,UA,1696030460
256,mil'kovo,55.6078,37.7956,288.18,77,63,2.65,RU,1696030461
257,guerrero negro,27.9769,-114.0611,294.51,68,1,7.01,MX,1696030461
258,conception bay south,47.4999,-52.9981,283.68,87,81,1.98,CA,1696030400
259,venado,22.9333,-101.0833,299.37,29,6,5.34,MX,1696030461
260,namibe,-15.1961,12.1522,291.02,87,60,4.09,AO,1696030461
261,ust'-katav,54.9369,58.1656,282.6,97,99,0.62,RU,1696030462
262,taganrog,47.2362,38.8969,290.08,52,0,4.0,RU,1696030462
263,nola,40.922,14.5329,295.72,90,0,1.32,IT,1696030462
264,murzuq,25.9155,13.9184,299.43,29,6,5.14,LY,1696030462
265,mejit,10.2753,170.8646,301.2,79,99,6.28,MH,1696030462
266,znamenskoye,57.1281,73.8282,281.77,93,100,2.07,RU,1696030462
267,gardnerville ranchos,38.8882,-119.7413,295.18,36,75,7.15,US,1696030463
268,fale old settlement,-9.3852,-171.2468,301.96,71,36,5.1,TK,1696030463
269,nsanje,-16.92,35.262,298.24,61,3,1.98,MW,1696030463
270,jamestown,42.097,-79.2353,291.95,79,0,2.57,US,1696030232
271,akureyri,65.6835,-18.0878,277.11,93,75,3.09,IS,1696030463
272,aasiaat,68.7098,-52.8699,271.9,89,96,2.29,GL,1696030279
273,kourou,5.1552,-52.6478,301.18,80,19,5.77,GF,1696030328
274,lira,2.235,32.9097,291.93,88,12,0.29,UG,1696030464
275,udachny,66.4167,112.4,275.07,93,100,2.86,RU,1696030276
276,remire-montjoly,4.9167,-52.2667,301.17,78,0,2.06,GF,1696030301
277,boende,-0.2167,20.8667,295.07,94,92,0.28,CD,1696030315
278,la ligua,-32.4524,-71.2311,285.46,83,0,0.33,CL,1696030464
279,withernsea,53.7311,0.0335,286.45,80,77,4.96,GB,1696030464
280,madimba,-10.4,40.3333,296.17,84,1,2.95,TZ,1696030464
281,de aar,-30.6497,24.0123,291.07,16,81,2.73,ZA,1696030465
282,tayshet,55.9342,98.0044,279.53,94,99,2.72,RU,1696030465
283,hammerfest,70.6634,23.6821,280.4,100,75,1.54,NO,1696030301
284,mabai,23.0128,104.4508,290.15,96,78,0.69,CN,1696030465
285,guariba,-21.36,-48.2283,296.61,54,16,2.51,BR,1696030465
286,ancud,-41.8697,-73.8203,280.31,83,1,1.64,CL,1696030465
287,saudarkrokur,65.7461,-19.6394,277.86,84,100,1.17,IS,1696030305
288,rabo de peixe,37.8,-25.5833,295.88,99,40,5.66,PT,1696030278
289,tralee,52.2704,-9.7026,283.74,91,100,2.18,IE,1696030306
290,ribeira brava,32.65,-17.0667,296.88,84,36,0.44,PT,1696030466
291,chatellerault,46.8,0.5333,290.55,1,62,1.08,FR,1696030466
292,dwarka,22.2394,68.9678,300.27,82,71,5.87,IN,1696030466
293,labytnangi,66.6572,66.4183,272.49,78,69,2.47,RU,1696030226
294,hotan,37.0997,79.9269,287.88,26,0,1.04,CN,1696030054
295,stung treng,13.5259,105.9683,297.37,96,70,1.19,KH,1696030467
296,shingu,33.7333,135.9833,300.16,70,57,0.65,JP,1696030467
297,saldanha,-33.0117,17.9442,287.52,92,100,4.11,ZA,1696030331
298,utrik,11.2278,169.8474,301.96,75,94,6.65,MH,1696030035
299,aginskoye,51.1,114.53,280.96,74,48,1.96,RU,1696030467
300,stavern,59.0,10.0333,284.92,91,0,10.5,NO,1696030467
301,vadso,70.0744,29.7487,281.64,100,40,2.57,NO,1696030467
302,nikel,69.4128,30.222,281.25,97,95,1.76,RU,1696030468
303,canutama,-6.5339,-64.3831,299.52,74,78,0.79,BR,1696030468
304,sao vicente,-23.9631,-46.3919,294.97,84,91,3.32,BR,1696030428
305,haiku-pauwela,20.9219,-156.3051,304.16,61,40,9.77,US,1696030076
306,roma,43.2128,-75.4557,290.23,82,75,2.06,US,1696030464
307,mili,6.0815,171.735,300.64,78,100,6.85,MH,1696030468
308,keflavik,64.0049,-22.5624,279.39,87,0,2.06,IS,1696030412
309,lukhovitsy,54.9728,39.0361,286.0,81,62,2.5,RU,1696030469
310,olinda,-8.0089,-34.8553,300.0,74,75,7.72,BR,1696030307
311,itajuipe,-14.6781,-39.375,296.59,97,21,0.94,BR,1696030469
312,aykhal,66.0,111.5,275.57,99,100,4.08,RU,1696030279
313,lumding railway colony,25.749,93.17,297.23,98,94,0.57,IN,1696030469
314,nili,33.7218,66.1302,281.87,46,0,3.18,AF,1696030348
315,vuktyl,63.8567,57.3094,275.92,86,93,2.3,RU,1696030469
316,camiri,-20.05,-63.5167,291.09,58,27,0.98,BO,1696030470
317,yokadouma,3.5167,15.05,294.55,97,100,0.87,CM,1696030470
318,malmslatt,58.411,15.5165,288.62,89,100,7.72,SE,1696030470
319,lazaro cardenas,17.9583,-102.2,303.73,74,31,4.96,MX,1696030017
320,park avenue,-23.3573,150.5075,298.11,57,40,2.57,AU,1696030470
321,okha,53.5739,142.9478,284.06,90,100,3.18,RU,1696030470
322,freetown,8.484,-13.2299,299.99,83,75,2.57,SL,1696030470
323,gdov,58.7406,27.8122,288.0,82,100,4.87,RU,1696030471
324,hastings,50.8552,0.5729,287.47,36,99,3.02,GB,1696030471
325,grantsville,40.5999,-112.4644,302.67,38,0,3.6,US,1696030471
326,cedeira,43.6797,-8.0209,291.14,75,8,2.97,ES,1696030471
327,casper,42.8666,-106.3131,300.22,16,0,5.14,US,1696030466
328,sungailiat,-1.85,106.1333,300.44,76,62,4.01,ID,1696030471
329,mo i rana,66.3128,14.1428,284.44,93,100,1.03,NO,1696030471
330,wailua homesteads,22.0669,-159.378,301.55,72,40,6.17,US,1696030278
331,sandnessjoen,66.0217,12.6316,283.44,100,75,1.03,NO,1696030364
332,shiguai,40.7058,110.2856,281.94,38,0,1.69,CN,1696030472
333,umm kaddadah,13.6017,26.6876,304.61,36,41,2.52,SD,1696030472
334,puerto baquerizo moreno,-0.9,-89.6,296.1,79,36,4.45,EC,1696030344
335,mankono,8.0586,-6.1897,296.12,94,21,1.22,CI,1696030472
336,lupane,-18.9315,27.807,294.0,54,31,3.31,ZW,1696030472
337,howrah,22.5892,88.3103,299.15,94,75,3.09,IN,1696030473
338,miles city,46.4083,-105.8406,294.69,40,0,0.0,US,1696030473
339,mechetinskaya,46.7713,40.456,288.51,52,0,3.6,RU,1696030473
340,novyy urgal,51.0736,132.5642,280.92,91,100,0.83,RU,1696030473
341,ubari,26.5921,12.7805,299.36,32,80,5.51,LY,1696030473
342,tomatlan,19.9333,-105.25,301.69,86,52,2.07,MX,1696030473
343,prince rupert,54.3161,-130.3201,285.2,84,0,6.17,CA,1696030211
344,concepcion,-36.827,-73.0498,290.04,67,0,5.14,CL,1696030298
345,sengkang,-4.1279,120.0297,301.26,64,46,3.2,ID,1696030474
346,burley,42.5357,-113.7928,294.98,34,0,4.02,US,1696030474
347,chok chai,14.7284,102.1652,299.95,92,100,1.77,TH,1696030474
348,acajutla,13.5928,-89.8275,301.59,79,63,1.3,SV,1696030474
349,zainsk,55.3195,52.0694,284.7,96,84,2.42,RU,1696030475
350,pandan,14.0453,124.1694,301.56,83,100,2.82,PH,1696030475
351,hobyo,5.3505,48.5268,298.85,89,33,9.76,SO,1696030475
352,zhigalovo,54.8097,105.1578,280.11,77,73,0.4,RU,1696030475
353,rio tuba,8.5061,117.4317,300.85,83,81,5.92,PH,1696030475
354,praia,14.9215,-23.5087,299.45,89,20,3.6,CV,1696030475
355,sao miguel do tapuio,-5.5036,-41.3233,302.03,27,61,3.6,BR,1696030476
356,shibganj,24.6829,88.1598,299.83,84,100,2.36,BD,1696030476
357,manokwari,-0.8667,134.0833,301.19,73,90,1.25,ID,1696030476
358,heihe,50.2441,127.4902,282.47,66,96,5.56,CN,1696030476
359,berdigestyakh,62.0989,126.6992,274.56,50,82,1.8,RU,1696030476
360,tarrafal de sao nicolau,16.5667,-24.3667,299.12,83,95,4.48,CV,1696030476
361,suntar,62.1444,117.6319,280.01,79,94,2.46,RU,1696030476
362,myitkyina,25.3833,97.4,296.39,99,66,0.27,MM,1696030476
363,concepcion del uruguay,-32.4825,-58.2372,290.92,70,9,2.24,AR,1696030257
364,nieuw amsterdam,5.8833,-55.0833,303.24,66,0,3.6,SR,1696030477
365,cill airne,52.05,-9.5167,283.59,94,100,1.75,IE,1696030298
366,nadym,65.5333,72.5167,272.58,90,32,4.49,RU,1696030477
367,nemuro,43.3236,145.575,289.98,75,96,5.19,JP,1696030286
368,punta cardon,11.6581,-70.215,302.52,74,100,9.05,VE,1696030477
369,chui,-33.6971,-53.4616,286.97,96,77,1.33,UY,1696030255
370,saint-joseph,-21.3667,55.6167,294.36,73,19,3.58,RE,1696030477
371,baissa,7.2333,10.6333,295.53,99,97,0.48,NG,1696030477
372,urazovo,50.0836,38.0395,287.0,45,11,1.2,RU,1696030477
373,luderitz,-26.6481,15.1594,287.42,73,3,3.32,NA,1696030478
374,pauini,-7.7136,-66.9764,296.13,94,98,1.48,BR,1696030478
375,coquimbo,-29.9533,-71.3436,287.0,88,40,3.6,CL,1696030478
376,wum,6.3833,10.0667,290.43,96,80,1.11,CM,1696030478
377,mount isa,-20.7333,139.5,300.02,32,0,6.69,AU,1696030308
378,dhidhdhoo,6.8833,73.1,300.54,79,90,6.52,MV,1696030478
379,ondangwa,-17.9167,15.95,298.15,15,49,1.03,NA,1696030478
380,mahur,25.1667,93.1167,294.61,88,100,0.78,IN,1696030478
381,urzhum,57.1141,49.9996,280.48,92,37,1.73,RU,1696030479
382,kaa-khem,51.6833,94.7333,279.39,65,100,1.8,RU,1696030479
383,villa gesell,-37.2639,-56.973,282.62,63,78,6.88,AR,1696030479
384,shache,38.4167,77.2406,291.88,44,100,8.7,CN,1696030479
385,camana,-16.6228,-72.7111,291.24,85,64,3.36,PE,1696030479
386,tsagan aman,47.5639,46.7218,288.61,40,1,1.98,RU,1696030479
387,fortuna foothills,32.6578,-114.4119,311.2,22,0,4.12,US,1696030479
388,malango,-2.9627,119.9001,296.04,77,56,1.19,ID,1696030479
389,al qadarif,14.0349,35.3834,299.0,73,45,3.56,SD,1696030480
390,caleta de carquin,-11.0925,-77.6267,292.31,86,80,4.04,PE,1696030480
391,talnakh,69.4865,88.3972,269.38,85,99,5.5,RU,1696030022
392,san pedro pochutla,15.7333,-96.4667,302.99,80,76,1.76,MX,1696030480
393,usinsk,65.9939,57.5281,272.86,86,76,4.37,RU,1696030480
394,hit,33.6416,42.8251,300.45,27,0,5.02,IQ,1696030480
395,al jawf,29.5,38.75,297.14,22,0,4.17,SA,1696030480
396,mugia,43.1041,-9.2179,292.13,92,22,3.05,ES,1696030480
397,constantia,44.1833,28.65,291.53,67,12,7.48,RO,1696030194
398,terrace,54.5163,-128.6035,288.83,62,75,1.54,CA,1696030481
399,ust-kamenogorsk,49.9789,82.6103,284.11,76,75,4.02,KZ,1696030481
400,sumbawa besar,-8.5,117.4333,301.95,46,60,1.73,ID,1696030481
401,corner brook,48.9667,-57.9484,285.24,90,77,1.27,CA,1696030361
402,trincomalee,8.5711,81.2335,300.14,74,100,8.65,LK,1696030481
403,nogliki,51.8333,143.1667,285.75,72,17,2.84,RU,1696030481
404,santana,-0.0583,-51.1817,303.25,66,20,4.12,BR,1696030482
405,makokou,0.5738,12.8642,293.89,99,50,1.31,GA,1696030482
406,dudinka,69.4058,86.1778,269.61,91,94,9.26,RU,1696030277
407,ambalangoda,6.2355,80.0538,298.72,87,98,2.6,LK,1696030482
408,zeya,53.75,127.2667,282.06,63,87,3.49,RU,1696030482
409,ashland,40.8167,-82.2665,292.58,92,49,2.17,US,1696030482
410,brookings,44.3114,-96.7984,294.4,88,100,2.57,US,1696030376
411,rey bouba,8.6724,14.1786,296.92,92,74,0.97,CM,1696030482
412,santa ana,33.7456,-117.8678,299.51,65,75,5.14,US,1696030189
413,yaren,-0.5472,166.916,301.79,75,99,5.2,NR,1696030483
414,shimoda,34.6667,138.95,297.35,73,95,2.58,JP,1696030483
415,berrechid,33.2655,-7.5875,295.93,68,0,2.57,MA,1696030483
416,mabaruma,8.2,-59.7833,300.27,84,13,2.15,GY,1696030483
417,xam nua,20.4197,104.0439,293.24,100,100,0.35,LA,1696030483
418,friedrichstadt,54.3757,9.0867,287.58,82,0,4.26,DE,1696030483
419,itamaraca,-7.7478,-34.8256,300.18,74,84,5.37,BR,1696030483
420,sola,-13.8833,167.55,297.99,67,98,10.71,VU,1696030484
421,egilsstadir,65.2653,-14.3948,277.1,93,100,0.0,IS,1696030286
422,porto novo,6.4965,2.6036,298.05,90,95,2.42,BJ,1696030484
423,barssel,53.1667,7.7333,285.16,94,11,3.52,DE,1696030484
424,pointe aux piments,-20.0628,57.5131,295.66,77,9,5.94,MU,1696030484
425,gwadar,25.1216,62.3254,301.5,34,0,3.78,PK,1696030276
426,duba,27.3513,35.6901,306.42,28,4,7.37,SA,1696030484
427,las tablas,7.7667,-80.2833,300.81,81,69,1.22,PA,1696030484
428,bowen,-20.0167,148.2333,297.37,63,26,6.99,AU,1696030485
429,nouadhibou,20.931,-17.0347,299.14,57,60,5.66,MR,1696030485
430,tanabe,33.7333,135.3667,297.71,73,40,0.51,JP,1696030485
431,blenheim,-41.516,173.9528,287.33,46,93,0.45,NZ,1696030485
432,barra de santo antonio,-9.4047,-35.5072,298.75,66,94,4.15,BR,1696030485
433,polyarnyy,69.1989,33.4478,283.31,94,100,3.91,RU,1696030485
434,dolzhanskaya,46.6311,37.8039,292.16,61,34,6.82,RU,1696030485
435,gedo,9.0167,37.45,283.58,87,9,1.15,ET,1696030486
436,buka,40.8108,69.1986,289.05,43,98,2.1,UZ,1696030486
437,nova vicosa,-17.8919,-39.3719,296.83,76,68,6.65,BR,1696030083
438,island harbour,50.724,-1.2758,287.0,92,99,1.87,GB,1696030486
439,emerald,-23.5333,148.1667,297.23,53,0,4.87,AU,1696030486
440,laohekou,32.3858,111.6678,292.01,84,42,1.79,CN,1696030421
441,dunedin,-45.8742,170.5036,281.93,61,82,4.92,NZ,1696030270
442,ma'rib,15.4591,45.3253,296.79,20,5,2.61,YE,1696030486
443,frederico westphalen,-27.3592,-53.3944,294.51,87,94,0.48,BR,1696030487
444,trevelin,-43.0858,-71.4639,282.86,75,0,1.66,AR,1696030487
445,cudillero,43.5622,-6.1459,293.1,98,20,1.03,ES,1696030487
446,bouna,9.2667,-3.0,296.09,93,84,1.81,CI,1696030487
447,ta`u,-14.2336,-169.5144,300.15,79,52,5.33,AS,1696030487
448,riti,7.9167,9.6167,295.31,91,99,1.8,NG,1696030487
449,birao,10.2849,22.7882,296.31,90,28,0.64,CF,1696030487
450,itaituba,-4.2761,-55.9836,305.44,33,77,1.01,BR,1696030488
451,grand-bassam,5.2118,-3.7388,299.13,92,88,1.83,CI,1696030488
452,inari,68.906,27.0288,283.26,96,98,1.25,FI,1696030488
453,kabare,-2.4683,28.8242,289.46,88,54,1.39,CD,1696030488
454,kidal,18.4411,1.4078,304.62,28,7,4.63,ML,1696030488
455,holualoa,19.6228,-155.9522,301.06,72,20,8.23,US,1696030284
456,port saint john's,-31.6229,29.5448,295.44,60,49,3.41,ZA,1696030488
457,belmonte,-15.8631,-38.8828,296.89,84,75,6.01,BR,1696030488
458,arno,60.1167,18.6333,287.47,93,96,4.28,SE,1696030291
459,itoman,26.1247,127.6694,301.36,94,20,3.6,JP,1696030253
460,mananjary,-21.2167,48.3333,292.92,91,0,3.16,MG,1696030489
461,aroma,15.8167,36.1333,305.63,29,3,3.5,SD,1696030489
462,chul'man,56.8479,124.9104,278.28,71,98,3.37,RU,1696030489
463,tateyama,34.9833,139.8667,299.32,72,87,1.91,JP,1696030489
464,chinchilla,-26.75,150.6333,298.41,43,0,2.93,AU,1696030489
465,lodja,-3.4833,23.4333,295.02,84,82,0.91,CD,1696030490
466,cururupu,-1.8283,-44.8683,296.53,90,53,1.66,BR,1696030490
467,healesville,-37.65,145.5167,297.84,34,11,0.45,AU,1696030490
468,imam qasim,32.298,44.6828,302.18,24,0,4.81,IQ,1696030490
469,st. john's,47.5649,-52.7093,283.81,84,75,1.03,CA,1696030479
470,crane,31.3974,-102.3501,305.86,30,0,9.34,US,1696030010
471,koch'ang,35.4333,126.7,288.01,87,100,1.23,KR,1696030490
472,tazacorte,28.629,-17.9293,296.69,70,20,2.57,ES,1696030285
473,belyy yar,53.6039,91.3903,281.09,100,75,0.0,RU,1696030491
474,kapustin yar,48.5831,45.7372,288.97,47,4,3.01,RU,1696030491
475,arrifes,37.7667,-25.7,295.29,94,40,5.66,PT,1696030491
476,aral,40.5156,81.2636,290.96,30,100,1.19,CN,1696030491
477,initao,8.4997,124.3039,301.02,75,99,3.24,PH,1696030491
478,fortaleza,-3.7227,-38.5247,299.94,78,0,4.63,BR,1696030430
479,bac lieu,9.285,105.7244,298.88,88,95,3.36,VN,1696030492
480,mildura,-34.2,142.15,298.75,22,0,6.6,AU,1696030340
481,grand falls-windsor,48.9332,-55.6649,283.05,85,98,1.25,CA,1696030492
482,selfoss,63.9331,-20.9971,275.95,73,72,2.49,IS,1696030303
483,enriquillo,17.9,-71.2333,301.97,80,98,2.32,DO,1696030492
484,shalqar,47.8333,59.6,287.36,50,76,3.52,KZ,1696030493
485,manaure,11.7751,-72.4445,303.6,65,87,5.05,CO,1696030493
486,masterton,-40.9597,175.6575,282.53,93,100,6.16,NZ,1696030493
487,nang rong,14.6377,102.7914,297.62,89,100,1.61,TH,1696030493
488,tshikapa,-6.4167,20.8,295.87,77,23,1.57,CD,1696030493
489,east ballina,-28.8667,153.5833,296.5,62,7,4.26,AU,1696030493
490,sechura,-5.5569,-80.8222,294.79,75,81,7.2,PE,1696030493
491,novodvinsk,64.4165,40.8122,284.3,95,100,3.27,RU,1696030494
492,kalmunai,7.4167,81.8167,298.94,78,91,6.01,LK,1696030494
493,baruun-urt,46.6806,113.2792,279.82,65,9,2.2,MN,1696030494
494,gherla,47.0333,23.9167,284.54,51,0,0.88,RO,1696030494
495,bam,29.106,58.357,294.56,21,7,2.72,IR,1696030494
496,voronovytsya,49.1095,28.6808,287.07,51,1,2.09,UA,1696030494
497,tianpeng,30.9866,103.9393,293.82,86,86,1.28,CN,1696030494
498,blair,41.5444,-96.125,306.94,33,0,8.23,US,1696030495
499,thunder bay,48.4001,-89.3168,290.14,82,75,3.6,CA,1696030441
500,adam,22.3756,57.5233,299.08,38,0,0.72,OM,1696030495
501,lorengau,-2.0226,147.2712,301.84,75,37,3.23,PG,1696030495
502,asau,46.4333,26.4,282.66,51,11,2.17,RO,1696030495
503,swift current,50.2834,-107.8014,289.6,39,0,4.63,CA,1696030495
504,ghat,24.9647,10.1728,297.83,40,65,0.49,LY,1696030495
505,saguenay,48.4168,-71.0657,288.21,84,40,1.54,CA,1696030323
506,calabozo,8.9242,-67.4293,302.05,67,89,1.64,VE,1696030496
507,punta alta,-38.8759,-62.0736,281.52,76,1,4.17,AR,1696030387
508,beauvais,49.4167,2.0,284.61,92,0,0.51,FR,1696030496
509,kailua-kona,19.6406,-155.9956,303.13,71,20,8.23,US,1696030177
510,kenai,60.5544,-151.2583,284.2,63,0,2.06,US,1696030400
511,colonia,50.9333,6.95,288.13,87,0,0.51,DE,1696030311
512,gisborne,-38.6533,178.0042,282.38,90,100,4.8,NZ,1696030298
513,gouyave,12.1646,-61.7296,302.58,79,20,6.17,GD,1696030497
514,ardestan,33.3761,52.3694,290.69,31,0,1.05,IR,1696030497
515,hithadhoo,-0.6,73.0833,301.21,77,3,6.59,MV,1696030299
516,kiunga,-6.1219,141.2906,297.18,91,99,1.71,PG,1696030497
517,puerto armuelles,8.2833,-82.8667,302.14,85,98,2.24,PA,1696030318
518,tual,-5.6667,132.75,299.21,83,100,5.95,ID,1696030497
519,duragan,41.4158,35.0544,290.49,92,76,0.42,TR,1696030497
520,lautoka,-17.6167,177.4667,300.07,54,20,4.12,FJ,1696030498
521,krasnokholm,51.5979,54.1567,285.99,78,42,2.56,RU,1696030498
522,itamarandiba,-17.8572,-42.8589,292.78,71,61,3.37,BR,1696030498
523,khanty-mansiysk,61.0042,69.0019,271.21,93,0,1.0,RU,1696030498
524,nema,57.5067,50.5011,280.08,95,40,1.95,RU,1696030498
525,toliara,-23.35,43.6667,295.46,88,13,2.23,MG,1696030313
526,ende,-8.8432,121.6623,300.96,59,51,1.15,ID,1696030499
527,loango,-4.6719,11.8312,297.96,88,75,1.54,CG,1696030499
528,sisimiut,66.9395,-53.6735,274.53,84,69,2.82,GL,1696030324
529,kollam,8.8833,76.6,298.33,85,98,2.1,IN,1696030499
530,chibougamau,49.9168,-74.3659,288.94,67,0,1.03,CA,1696030314
531,al bab,36.3699,37.5179,293.68,76,9,6.91,SY,1696030499
532,hami,42.8,93.45,289.78,23,72,2.8,CN,1696030500
533,zhezqazghan,47.7833,67.7667,284.96,49,98,1.29,KZ,1696030500
534,salzwedel,52.85,11.15,288.16,85,57,5.41,DE,1696030500
535,harnoli,32.2792,71.5539,299.25,43,0,3.54,PK,1696030500
536,necochea,-38.5473,-58.7368,281.46,83,100,5.27,AR,1696030338
537,ar ruways,24.1103,52.7306,301.88,60,0,2.02,AE,1696030500
538,yuzhno-kurilsk,44.0306,145.8556,289.58,74,78,3.42,RU,1696030312
539,illizi,26.4833,8.4667,300.04,25,87,4.77,DZ,1696030304
540,carutapera,-1.195,-46.02,299.2,81,20,4.21,BR,1696030501
541,vikulovo,56.8167,70.6107,283.36,91,100,2.56,RU,1696030501
542,jatiroto,-7.8833,111.1167,298.46,55,20,2.45,ID,1696030501
543,karwar,14.8,74.1333,298.71,88,100,6.18,IN,1696030298
544,merizo village,13.2658,144.6691,303.36,80,100,3.21,GU,1696030501
545,puerto ayacucho,5.6639,-67.6236,302.43,70,98,0.34,VE,1696030502
546,kavieng,-2.5744,150.7967,301.57,71,100,1.31,PG,1696030502
547,hajnowka,52.7433,23.5812,286.49,81,89,0.45,PL,1696030502
548,jijiga,9.35,42.8,291.34,77,5,0.69,ET,1696030502
549,sincik,38.0368,38.6149,289.01,46,4,0.3,TR,1696030503
550,mahavelona,-17.6848,49.5087,294.14,89,78,1.09,MG,1696030503
551,barra do corda,-5.5,-45.25,303.49,33,84,2.14,BR,1696030503
552,maridi,4.9158,29.4742,293.09,96,64,0.55,SS,1696030503
553,the pas,53.8251,-101.2541,287.16,72,75,1.03,CA,1696030504
554,athi river,-1.4507,36.9824,291.86,82,75,3.6,KE,1696030504
555,bodo,67.28,14.405,284.17,98,100,3.09,NO,1696030498
556,ulladulla,-35.35,150.4667,297.33,26,1,1.76,AU,1696030320
557,carauari,-4.8828,-66.8958,297.83,93,83,1.89,BR,1696030504
558,duong dong,10.2167,103.9667,300.15,94,20,0.0,VN,1696030504
559,bure,10.7,37.0667,287.14,91,86,1.48,ET,1696030303
560,alo,7.4178,6.7371,296.51,91,100,1.16,NG,1696030505
561,bel ombre,-4.6167,55.4167,298.06,88,40,6.17,SC,1696030505
562,capanema,-1.1958,-47.1808,298.23,85,21,3.29,BR,1696030431
563,togur,58.3631,82.8265,279.88,95,99,4.43,RU,1696030505
564,kamina,-8.7386,24.9906,292.73,87,86,1.81,CD,1696030505
565,kone,-21.0595,164.8658,299.04,42,9,3.36,NC,1696030505
